"台帳ID","管理対象ID","名称","棟名","文化財種類","種別1","種別2","国","時代","重文指定年月日","国宝指定年月日","都道府県","所在地","保管施設の名称","所有者名","管理団体又は責任者","緯度","経度"
"101","00012295","秋元家住宅土蔵","","登録有形文化財(建造物)","住宅","建築物","","江戸","20180510","","千葉県","千葉県流山市流山二丁目109-9","","","","35.85560278000000","139.89960833000000"
"101","00002363","芥川荘","","登録有形文化財(建造物)","産業3次","建築物","","明治","20011012","","千葉県","千葉県長生郡一宮町一宮字林下9240-1","","","","35.38116777000000","140.38554778000000"
"101","00001246","熱海輪店（旧千葉銀行大網支店）","","登録有形文化財(建造物)","産業3次","建築物","","大正","19990823","","千葉県","千葉県山武郡大網白里町大網686-1","","","","35.52538448000000","140.32126369000000"
"101","00001170","新井時計店","","登録有形文化財(建造物)","産業3次","建築物","","昭和前","19990708","","千葉県","千葉県匝瑳市八日市場イ2450","","","","35.70180500000000","140.54946900000000"
"101","00014324","安藤家住宅稲荷社","","登録有形文化財(建造物)","住宅","建築物","","昭和前","20221031","","千葉県","千葉県袖ケ浦市代宿字野口1037-1","","","","35.45699167000000","140.02100000000000"
"101","00014322","安藤家住宅主屋","","登録有形文化財(建造物)","住宅","建築物","","江戸","20221031","","千葉県","千葉県袖ケ浦市代宿字野口1037-1","","","","35.45692222000000","140.02116389000000"
"101","00014323","安藤家住宅土蔵","","登録有形文化財(建造物)","住宅","建築物","","江戸","20221031","","千葉県","千葉県袖ケ浦市代宿字野口1037-1","","","","35.45677222000000","140.02124167000000"
"101","00011884","飯沼本家裏門及び塀","","登録有形文化財(建造物)","産業2次","その他工作物","","昭和前","20171027","","千葉県","千葉県印旛郡酒々井町馬橋字場々106-1","","","","35.70943700000000","140.27209200000000"
"101","00011883","飯沼本家甲子蔵","","登録有形文化財(建造物)","産業2次","建築物","","昭和前","20171027","","千葉県","千葉県印旛郡酒々井町馬橋字場々105-7他","","株式会社飯沼本家","","35.70927900000000","140.27204000000000"
"101","00011879","飯沼本家主屋","","登録有形文化財(建造物)","住宅","建築物","","江戸","20171027","","千葉県","千葉県印旛郡酒々井町馬橋字場々106-1","","","","35.70932800000000","140.27157500000000"
"101","00011880","飯沼本家離れ屋","","登録有形文化財(建造物)","住宅","建築物","","昭和前","20171027","","千葉県","千葉県印旛郡酒々井町馬橋字場々106-1","","","","35.70916500000000","140.27171500000000"
"101","00011881","飯沼本家前蔵","","登録有形文化財(建造物)","住宅","建築物","","明治","20171027","","千葉県","千葉県印旛郡酒々井町馬橋字場々106-1","","株式会社飯沼本家","","35.70921200000000","140.27181300000000"
"101","00011882","飯沼本家明治蔵","","登録有形文化財(建造物)","産業2次","建築物","","明治","20171027","","千葉県","千葉県印旛郡酒々井町馬橋字場々107-1他","","株式会社飯沼本家","","35.70967200000000","140.27188700000000"
"101","00012104","石上酒造麹室","","登録有形文化財(建造物)","産業2次","建築物","","明治","20180327","","千葉県","千葉県銚子市田中町7-1","","","","35.73263000000000","140.84255900000000"
"101","00012103","石上酒造米蔵","","登録有形文化財(建造物)","産業2次","建築物","","明治","20180327","","千葉県","千葉県銚子市田中町7-1","","","","35.73263000000000","140.84266200000000"
"101","00012105","石上酒造仕込蔵（醪蔵）","","登録有形文化財(建造物)","産業2次","建築物","","明治","20180327","","千葉県","千葉県銚子市田中町7-1","","","","35.73264100000000","140.84250200000000"
"101","00012106","石上酒造貯蔵蔵","","登録有形文化財(建造物)","産業2次","建築物","","明治","20180327","","千葉県","千葉県銚子市田中町7-1","","","","35.73276700000000","140.84251800000000"
"101","00012107","石上酒造文庫蔵","","登録有形文化財(建造物)","産業2次","建築物","","明治","20180327","","千葉県","千葉県銚子市田中町7-1","","","","35.73290100000000","140.84251400000000"
"101","00001177","石橋家住宅土蔵","","登録有形文化財(建造物)","住宅","建築物","","明治","19990708","","千葉県","千葉県成田市久井崎215","","","","35.84864093000000","140.41113848000000"
"101","00001176","石橋家住宅東の蔵","","登録有形文化財(建造物)","住宅","建築物","","明治","19990708","","千葉県","千葉県成田市久井崎215","","","","35.84856079000000","140.41117972000000"
"101","00001175","石橋家住宅南の蔵","","登録有形文化財(建造物)","住宅","建築物","","明治","19990708","","千葉県","千葉県成田市久井崎215","","","","35.84844755000000","140.41107914000000"
"101","00001174","石橋家住宅門","","登録有形文化財(建造物)","住宅","その他工作物","","明治","19990708","","千葉県","千葉県成田市久井崎215","","","","35.84849828000000","140.41114179000000"
"101","00007342","石原家住宅主屋","","登録有形文化財(建造物)","文化福祉","建築物","","明治","20081023","","千葉県","千葉県印旛郡栄町北辺田字前原573-1","","","","35.85315200000000","140.26213534000000"
"101","00001243","和泉公会堂","","登録有形文化財(建造物)","文化福祉","建築物","","大正","19990823","","千葉県","千葉県鴨川市和泉1612","","和泉区","","35.12876100000000","140.10270700000000"
"101","00007615","伊勢幸酒店店舗兼主屋","","登録有形文化財(建造物)","産業3次","建築物","","明治","20090428","","千葉県","千葉県夷隅郡大多喜町久保字根古屋132","","","","35.28652514000000","140.24649093000000"
"101","00009906","磯角商店主屋","","登録有形文化財(建造物)","住宅","建築物","","昭和中","20140425","","千葉県","千葉県銚子市飯沼町186","","","","35.73318021000000","140.84037507000000"
"101","00007970","一粒丸三橋薬局店舗","","登録有形文化財(建造物)","産業3次","建築物","","明治","20100115","","千葉県","千葉県成田市仲町363","","","","35.78432647000000","140.31730224000000"
"101","00007971","一粒丸三橋薬局土蔵","","登録有形文化財(建造物)","産業3次","建築物","","江戸","20100115","","千葉県","千葉県成田市仲町363","","","","35.78415834000000","140.31742322000000"
"101","00012503","伊藤家住宅井戸上屋","","登録有形文化財(建造物)","住宅","その他工作物","","明治","20181102","","千葉県","千葉県柏市増尾四丁目1383","","","","",""
"101","00012500","伊藤家住宅隠居屋","","登録有形文化財(建造物)","住宅","建築物","","明治","20181102","","千葉県","千葉県柏市増尾四丁目1383","","","","",""
"101","00012502","伊藤家住宅牛小屋","","登録有形文化財(建造物)","住宅","建築物","","明治","20181102","","千葉県","千葉県柏市増尾四丁目1383","","","","",""
"101","00013355","伊東家住宅主屋","","登録有形文化財(建造物)","住宅","建築物","","明治","20200817","","千葉県","千葉県山武郡芝山町小池1000","","","","35.69353611000000","140.41513333000000"
"101","00012498","伊藤家住宅主屋","","登録有形文化財(建造物)","住宅","建築物","","江戸","20181102","","千葉県","千葉県柏市増尾四丁目1383","","","","",""
"101","00012501","伊藤家住宅土蔵","","登録有形文化財(建造物)","住宅","建築物","","昭和前","20181102","","千葉県","千葉県柏市増尾四丁目1383","","","","",""
"101","00012499","伊藤家住宅離れ","","登録有形文化財(建造物)","住宅","建築物","","昭和前","20181102","","千葉県","千葉県柏市増尾四丁目1383","","","","",""
"101","00006501","岩井家住宅主屋（旧武蔵屋店舗）","","登録有形文化財(建造物)","産業3次","建築物","","大正","20071205","","千葉県","千葉県印西市木下1645","","","","35.83975553000000","140.14784573000000"
"101","00012879","上原家住宅石蔵","","登録有形文化財(建造物)","住宅","建築物","","大正","20190910","","千葉県","千葉県野田市桐ケ作字前山18","","","","36.05369444000000","139.81555556000000"
"101","00012880","上原家住宅表門","","登録有形文化財(建造物)","住宅","その他工作物","","明治","20190910","","千葉県","千葉県野田市桐ケ作字前山18-2","","","","36.05342222000000","139.81556667000000"
"101","00012877","上原家住宅書院","","登録有形文化財(建造物)","住宅","建築物","","明治","20190910","","千葉県","千葉県野田市桐ケ作字前山18","","","","36.05349167000000","139.81585556000000"
"101","00012878","上原家住宅土蔵","","登録有形文化財(建造物)","住宅","建築物","","明治","20190910","","千葉県","千葉県野田市桐ケ作字前山18","","","","36.05360000000000","139.81548889000000"
"101","00001166","内野家住宅洋館","","登録有形文化財(建造物)","住宅","建築物","","大正","19990708","","千葉県","千葉県銚子市長山町2034","","","","35.76955288000000","140.71786242000000"
"101","00013777","及川家住宅主屋","","登録有形文化財(建造物)","住宅","建築物","","江戸","20210624","","千葉県","千葉県匝瑳市飯塚字谷1263他","","","","35.73503056000000","140.55750556000000"
"101","00013778","及川家住宅土蔵","","登録有形文化財(建造物)","住宅","建築物","","明治","20210624","","千葉県","千葉県匝瑳市飯塚字谷1263他","","","","35.73488611000000","140.55743056000000"
"101","00010563","大多喜町役場中庁舎","","登録有形文化財(建造物)","官公庁舎","建築物","","昭和中","20150804","","千葉県","千葉県夷隅郡大多喜町大多喜93","","大多喜町","","35.28483000000000","140.24541700000000"
"101","00012505","大多和家住宅穀蔵","","登録有形文化財(建造物)","住宅","建築物","","江戸","20181102","","千葉県","千葉県長生郡白子町関字山中3881","","株式会社スリーピングトーキョー","","",""
"101","00012504","大多和家住宅主屋","","登録有形文化財(建造物)","住宅","建築物","","江戸","20181102","","千葉県","千葉県長生郡白子町関字山中3881","","株式会社スリーピングトーキョー","","",""
"101","00012506","大多和家住宅長屋門","","登録有形文化財(建造物)","住宅","建築物","","江戸","20181102","","千葉県","千葉県長生郡白子町関字山中3881","","株式会社スリーピングトーキョー","","",""
"101","00001181","大屋旅館","","登録有形文化財(建造物)","産業3次","建築物","","明治","19990708","","千葉県","千葉県夷隅郡大多喜町新丁64","","","","35.28292566000000","140.24733000000000"
"101","00010924","小高記念館","","登録有形文化財(建造物)","産業3次","建築物","","大正","20160225","","千葉県","千葉県館山市館山95-70","","","","34.98615300000000","139.85209500000000"
"101","00011644","小原家住宅表門","","登録有形文化財(建造物)","住宅","その他工作物","","明治","20170628","","千葉県","千葉県館山市南条字五反畑55-3","","","","34.98129800000000","139.87572611000000"
"101","00011643","小原家住宅旧長屋門","","登録有形文化財(建造物)","住宅","建築物","","江戸","20170628","","千葉県","千葉県館山市南条54","","","","34.98130200000000","139.87557900000000"
"101","00011641","小原家住宅米蔵","","登録有形文化財(建造物)","住宅","建築物","","江戸","20170628","","千葉県","千葉県館山市南条54","","","","34.98143000000000","139.87547000000000"
"101","00011639","小原家住宅主屋","","登録有形文化財(建造物)","住宅","建築物","","江戸","20170628","","千葉県","千葉県館山市南条54","","","","34.98154900000000","139.87568000000000"
"101","00011640","小原家住宅離れ","","登録有形文化財(建造物)","住宅","建築物","","昭和前","20170628","","千葉県","千葉県館山市南条54","","","","34.98137500000000","139.87589200000000"
"101","00011642","小原家住宅文庫蔵","","登録有形文化財(建造物)","住宅","建築物","","昭和前","20170628","","千葉県","千葉県館山市南条54","","","","34.98156700000000","139.87549000000000"
"101","00006977","懐石あた后店舗（旧茂木房五郎家住宅居住棟）","","登録有形文化財(建造物)","住宅","建築物","","昭和前","20080307","","千葉県","千葉県野田市野田字愛后裏740-2","","有限会社小室","","35.95084800000000","139.86366300000000"
"101","00006793","懐石あた后土蔵（旧茂木房五郎家住宅土蔵）","","登録有形文化財(建造物)","住宅","建築物","","昭和前","20080307","","千葉県","千葉県野田市野田字愛后裏740-2","","有限会社小室","","35.95086700000000","139.86377000000000"
"101","00001492","香雲閣","","登録有形文化財(建造物)","宗教","建築物","","明治","20000215","","千葉県","千葉県香取市香取1697-1","","宗教法人香取神宮","","35.88733452000000","140.52951259000000"
"101","00007458","鶴泉堂菓子店石倉庫","","登録有形文化財(建造物)","産業2次","建築物","","大正","20090108","","千葉県","千葉県匝瑳市八日市場イ2871","","","","35.70090410000000","140.54844528000000"
"101","00007457","鶴泉堂菓子店店舗兼主屋","","登録有形文化財(建造物)","産業2次","建築物","","昭和前","20090108","","千葉県","千葉県匝瑳市八日市場イ2871","","","","35.70112928000000","140.54845652000000"
"101","00003387","加藤家住宅（茂原牡丹園）主屋","","登録有形文化財(建造物)","住宅","建築物","","江戸","20030701","","千葉県","千葉県茂原市山崎210","","","","35.44059169000000","140.26828561000000"
"101","00003388","加藤家住宅（茂原牡丹園）長屋門","","登録有形文化財(建造物)","住宅","建築物","","江戸","20030701","","千葉県","千葉県茂原市山崎210","","","","35.44036810000000","140.26840884000000"
"101","00009258","加藤家住宅主屋","","登録有形文化財(建造物)","住宅","建築物","","明治","20120813","","千葉県","千葉県富津市笹毛字北舷1","","","","35.24844240000000","139.86893951000000"
"101","00008097","加藤家住宅主屋","","登録有形文化財(建造物)","住宅","建築物","","明治","20100428","","千葉県","千葉県市川市本行徳6-1","","","","35.69114213000000","139.91607311000000"
"101","00008098","加藤家住宅煉瓦塀","","登録有形文化財(建造物)","住宅","その他工作物","","明治","20100428","","千葉県","千葉県市川市本行徳6-1","","","","35.69117077000000","139.91617832000000"
"101","00002134","香取神宮拝殿・幣殿・神饌所","","登録有形文化財(建造物)","宗教","建築物","","昭和前","20010424","","千葉県","千葉県香取市香取1697-1","","宗教法人香取神宮","","35.88609531000000","140.52871628000000"
"101","00013231","川豊本店店舗","","登録有形文化財(建造物)","産業3次","建築物","","明治","20200403","","千葉県","千葉県成田市仲町386-1","","有限会社川豊","","35.78340278000000","140.31672222000000"
"101","00001345","木内家住宅旧蔵","","登録有形文化財(建造物)","住宅","建築物","","昭和前","19991014","","千葉県","千葉県香取郡多古町多古2613","","","","35.73790635000000","140.46581690000000"
"101","00001346","木内家住宅旧店舗","","登録有形文化財(建造物)","産業3次","建築物","","昭和前","19991014","","千葉県","千葉県香取郡多古町多古2613","","","","35.73796179000000","140.46582959000000"
"101","00001344","木内家住宅主屋","","登録有形文化財(建造物)","住宅","建築物","","昭和前","19991014","","千葉県","千葉県香取郡多古町多古2613","","","","35.73782317000000","140.46579238000000"
"101","00013349","キノエネ醤油旧火入場及び変電室","","登録有形文化財(建造物)","産業2次","建築物","","大正","20200817","","千葉県","千葉県野田市中野台字久保之内157他","","キノエネ醤油株式会社","","35.94756667000000","139.86055833000000"
"101","00013348","キノエネ醤油事務所兼主屋","","登録有形文化財(建造物)","産業2次","建築物","","明治","20200817","","千葉県","千葉県野田市中野台字久保之内157他","","キノエネ醤油株式会社","","35.94740000000000","139.86069167000000"
"101","00001171","木村家住宅（旧北白川宮邸）","","登録有形文化財(建造物)","住宅","建築物","","明治","19990708","","千葉県","千葉県四街道市四街道2-12-44","","","","35.66059187000000","140.16354393000000"
"101","00011648","旧秋場家住宅主屋","","登録有形文化財(建造物)","住宅","建築物","","明治","20170628","","千葉県","千葉県長生郡一宮町東浪見字大村1611","","有限会社亜巳絵","","35.34707900000000","140.37785600000000"
"101","00011649","旧秋場家住宅土蔵","","登録有形文化財(建造物)","住宅","建築物","","江戸","20170628","","千葉県","千葉県長生郡一宮町東浪見字大村1611","","有限会社亜巳絵","","35.34681200000000","140.37812300000000"
"101","00011650","旧秋場家住宅長屋門","","登録有形文化財(建造物)","住宅","建築物","","明治","20170628","","千葉県","千葉県長生郡一宮町東浪見字大村1611","","有限会社亜巳絵","","35.34683800000000","140.37789100000000"
"101","00008259","旧浅子神輿店店舗兼主屋","","登録有形文化財(建造物)","産業2次","建築物","","昭和前","20100910","","千葉県","千葉県市川市本行徳37-2","","市川市","","35.69043123000000","139.91553178000000"
"101","00014325","旧莇家住宅店舗兼主屋","","登録有形文化財(建造物)","産業3次","建築物","","明治","20221031","","千葉県","千葉県印旛郡酒々井町酒々井字上宿1636-1","","酒々井町","","35.72322500000000","140.26562778000000"
"101","00013047","旧今井家住宅座敷棟","","登録有形文化財(建造物)","産業3次","建築物","","明治","20191205","","千葉県","千葉県佐倉市新町字仲町北側48-1","","佐倉市","","35.71966389000000","140.23080556000000"
"101","00013046","旧今井家住宅主屋","","登録有形文化財(建造物)","産業3次","建築物","","明治","20191205","","千葉県","千葉県佐倉市新町字仲町北側48-1","","佐倉市","","35.71960278000000","140.23081111000000"
"101","00013048","旧今井家住宅土蔵","","登録有形文化財(建造物)","産業3次","建築物","","明治","20191205","","千葉県","千葉県佐倉市新町字仲町北側48-1","","佐倉市","","35.71976111000000","140.23078333000000"
"101","00009711","旧岩崎家末廣別邸東屋","","登録有形文化財(建造物)","住宅","建築物","","昭和前","20131224","","千葉県","千葉県富里市七栄650-25","","富里市","","35.73468083000000","140.33828464000000"
"101","00009712","旧岩崎家末廣別邸石蔵","","登録有形文化財(建造物)","住宅","建築物","","昭和前","20131224","","千葉県","千葉県富里市七栄字獅子穴650-25","","富里市","","35.73525484000000","140.33782268000000"
"101","00009710","旧岩崎家末廣別邸主屋","","登録有形文化財(建造物)","住宅","建築物","","昭和前","20131224","","千葉県","千葉県富里市七栄650-25","","富里市","","35.73511152000000","140.33764457000000"
"101","00007730","旧河内屋店舗及び主屋","","登録有形文化財(建造物)","産業3次","建築物","","昭和前","20090807","","千葉県","千葉県君津市久留里市場字仲町158-1他","","","","35.29535827000000","140.07780272000000"
"101","00014321","旧公正會舘","","登録有形文化財(建造物)","学校","建築物","","大正","20221031","","千葉県","千葉県銚子市新生町二丁目1-5","","銚子市","","35.73209167000000","140.83320278000000"
"101","00011654","旧斎藤家住宅稲荷社","","登録有形文化財(建造物)","住宅","建築物","","明治","20170628","","千葉県","千葉県長生郡一宮町一宮字通町三丁目2987-1","","","","35.37531500000000","140.36275300000000"
"101","00011651","旧斎藤家住宅主屋","","登録有形文化財(建造物)","住宅","建築物","","明治","20170628","","千葉県","千葉県長生郡一宮町一宮字通町三丁目2987-1他","","","","35.37527400000000","140.36255300000000"
"101","00011645","旧齋藤家住宅主屋","","登録有形文化財(建造物)","住宅","建築物","","明治","20170628","","千葉県","千葉県松戸市紙敷588","","松戸市","","35.77364600000000","139.93766600000000"
"101","00011653","旧斎藤家住宅土蔵","","登録有形文化財(建造物)","住宅","建築物","","明治","20170628","","千葉県","千葉県長生郡一宮町一宮字通町三丁目2987-1","","","","35.37530500000000","140.36281600000000"
"101","00011652","旧斎藤家住宅店蔵","","登録有形文化財(建造物)","住宅","建築物","","明治","20170628","","千葉県","千葉県長生郡一宮町一宮字通町三丁目2987-1他","","","","35.37524200000000","140.36243500000000"
"101","00013510","旧佐倉市立志津小学校青菅分校校舎","","登録有形文化財(建造物)","学校","建築物","","昭和中","20210204","","千葉県","千葉県佐倉市青菅148","","佐倉市","","35.74730833000000","140.15400278000000"
"101","00011073","旧武居家住宅主屋","","登録有形文化財(建造物)","住宅","建築物","","江戸","20160801","","千葉県","千葉県佐倉市宮小路町60","","佐倉市","","35.71667500000000","140.22439400000000"
"101","00011077","旧藤谷家住宅主屋","","登録有形文化財(建造物)","住宅","建築物","","昭和中","20160801","","千葉県","千葉県袖ケ浦市代宿字陣場303-3他","","","","35.45631900000000","140.02772300000000"
"101","00011078","旧藤谷家住宅離れ","","登録有形文化財(建造物)","住宅","建築物","","昭和前","20160801","","千葉県","千葉県袖ケ浦市代宿字陣場303-3他","","","","35.45616800000000","140.02767500000000"
"101","00012099","旧西廣家住宅（治郎吉）缶詰工場","","登録有形文化財(建造物)","産業1次","建築物","","昭和前","20180327","","千葉県","千葉県銚子市川口町一丁目6271","","株式会社ランス","","35.73697000000000","140.85393500000000"
"101","00012098","旧西廣家住宅（治郎吉）主屋","","登録有形文化財(建造物)","産業1次","建築物","","明治","20180327","","千葉県","千葉県銚子市川口町一丁目6271","","株式会社ランス","","35.73685900000000","140.85391000000000"
"101","00012100","旧西廣家住宅（治郎吉）倉庫（北倉）","","登録有形文化財(建造物)","産業1次","建築物","","江戸","20180327","","千葉県","千葉県銚子市川口町一丁目6271","","株式会社ランス","","35.73691500000000","140.85460100000000"
"101","00012101","旧西廣家住宅（治郎吉）倉庫（南倉）","","登録有形文化財(建造物)","産業1次","建築物","","江戸","20180327","","千葉県","千葉県銚子市川口町一丁目6271","","株式会社ランス","","35.73679100000000","140.85459000000000"
"101","00012102","旧西廣家住宅（治郎吉）煉瓦塀","","登録有形文化財(建造物)","産業1次","その他工作物","","昭和前","20180327","","千葉県","千葉県銚子市川口町一丁目6271","","株式会社ランス","","35.73680300000000","140.85371600000000"
"101","00011075","旧平井家住宅座敷棟","","登録有形文化財(建造物)","産業3次","建築物","","昭和前","20160801","","千葉県","千葉県佐倉市新町233-5","","佐倉市","","35.71905200000000","140.22743500000000"
"101","00011074","旧平井家住宅店舗兼主屋","","登録有形文化財(建造物)","産業3次","建築物","","明治","20160801","","千葉県","千葉県佐倉市新町233-5","","佐倉市","","35.71905600000000","140.22752600000000"
"101","00011076","旧平井家住宅脇蔵","","登録有形文化財(建造物)","産業3次","建築物","","大正","20160801","","千葉県","千葉県佐倉市新町233-6","","佐倉市","","35.71898900000000","140.22755800000000"
"101","00002607","旧水田家住宅主屋","","登録有形文化財(建造物)","住宅","建築物","","江戸","20020214","","千葉県","千葉県鴨川市西339","","学校法人城西大学","","35.09923277000000","140.00305596000000"
"101","00002608","旧水田家住宅長屋門","","登録有形文化財(建造物)","産業1次","建築物","","明治","20020214","","千葉県","千葉県鴨川市西339","","学校法人城西大学","","35.09901688000000","140.00318462000000"
"101","00012703","旧森田家住宅主屋","","登録有形文化財(建造物)","住宅","建築物","","昭和前","20190329","","千葉県","千葉県館山市北条2321","","","","34.99779972000000","139.86096000000000"
"101","00002606","旧陸軍演習場内圍壁","","登録有形文化財(建造物)","その他","その他工作物","","昭和前","20020214","","千葉県","千葉県習志野市東習志野4-15-6","","","","35.69500587000000","140.07528840000000"
"101","00001247","九十九里教会","","登録有形文化財(建造物)","宗教","建築物","","明治","19990823","","千葉県","千葉県山武市松尾町松尾60-1","","日本基督教団九十九里教会","","35.63986121000000","140.45620376000000"
"101","00000236","興風会館","","登録有形文化財(建造物)","文化福祉","建築物","","昭和前","19970715","","千葉県","千葉県野田市野田250","","財団法人興風会","","35.94276827000000","139.86357230000000"
"101","00011638","後藤家住宅稲荷社","","登録有形文化財(建造物)","住宅","建築物","","昭和前","20170628","","千葉県","千葉県市川市新田一丁目296-1","","","","35.72677200000000","139.91694800000000"
"101","00011637","後藤家住宅主屋","","登録有形文化財(建造物)","住宅","建築物","","大正","20170628","","千葉県","千葉県市川市新田一丁目296","","","","35.72646700000000","139.91674700000000"
"101","00004335","呉服新川屋店舗","","登録有形文化財(建造物)","産業3次","建築物","","明治","20041108","","千葉県","千葉県流山市加6-1305","","","","35.85751955000000","139.89969463000000"
"101","00011460","小湊鉄道海士有木駅本屋","","登録有形文化財(建造物)","交通","建築物","","大正","20170502","","千葉県","千葉県市原市海士有木字西ケ崎1813-1","","小湊鉄道株式会社","","35.48169200000000","140.12408000000000"
"101","00011479","小湊鉄道板谷隧道","","登録有形文化財(建造物)","交通","土木構造物","","昭和前","20170502","","千葉県","千葉県市原市朝生原字小谷沢401-15～夷隅郡大多喜町板谷字平四郎畑686-3","","小湊鉄道株式会社","","35.26026300000000","140.17589600000000"
"101","00011465","小湊鉄道馬立駅本屋","","登録有形文化財(建造物)","交通","建築物","","大正","20170502","","千葉県","千葉県市原市馬立字曲本790-2","","小湊鉄道株式会社","","35.42367700000000","140.11487300000000"
"101","00011476","小湊鉄道大久保隧道","","登録有形文化財(建造物)","交通","土木構造物","","昭和前","20170502","","千葉県","千葉県市原市大久保字城ノ越802-4～字仏谷247-3","","小湊鉄道株式会社","","35.28976100000000","140.14130500000000"
"101","00011467","小湊鉄道上総牛久駅本屋","","登録有形文化財(建造物)","交通","建築物","","大正","20170502","","千葉県","千葉県市原市牛久字中宿後897-2","","小湊鉄道株式会社","","35.40009500000000","140.14218600000000"
"101","00011470","小湊鉄道上総鶴舞駅貨物上屋","","登録有形文化財(建造物)","交通","建築物","","大正","20170502","","千葉県","千葉県市原市池和田字田尻1322","","小湊鉄道株式会社","","35.38166500000000","140.16498194000000"
"101","00011468","小湊鉄道上総鶴舞駅本屋","","登録有形文化財(建造物)","交通","建築物","","大正","20170502","","千葉県","千葉県市原市池和田字柳町898-2","","小湊鉄道株式会社","","35.38139000000000","140.16514694000000"
"101","00011459","小湊鉄道上総村上駅本屋","","登録有形文化財(建造物)","交通","建築物","","昭和前","20170502","","千葉県","千葉県市原市村上字木ノ間1358-2","","小湊鉄道株式会社","","35.49624300000000","140.10023000000000"
"101","00011461","小湊鉄道上総山田駅本屋","","登録有形文化財(建造物)","交通","建築物","","大正","20170502","","千葉県","千葉県市原市磯ヶ谷字西樋越2079-3","","小湊鉄道株式会社","","35.45422300000000","140.12616000000000"
"101","00011469","小湊鉄道旧鶴舞発電所","","登録有形文化財(建造物)","交通","建築物","","大正","20170502","","千葉県","千葉県市原市池和田字田尻1323-1","","小湊鉄道株式会社","","35.38140111000000","140.16466389000000"
"101","00011458","小湊鉄道五井機関区機関庫及び鍛冶小屋","","登録有形文化財(建造物)","交通","建築物","","大正","20170502","","千葉県","千葉県市原市五井中央東一丁目1-1","","小湊鉄道株式会社","","35.51187200000000","140.08886500000000"
"101","00011472","小湊鉄道里見駅本屋","","登録有形文化財(建造物)","交通","建築物","","大正","20170502","","千葉県","千葉県市原市平野字内田茂176-1","","小湊鉄道株式会社","","35.33668500000000","140.14550111000000"
"101","00011462","小湊鉄道第一柴の下橋梁","","登録有形文化財(建造物)","交通","土木構造物","","大正","20170502","","千葉県","千葉県市原市二日市場字西三番町108-3～110-3","","小湊鉄道株式会社","","35.44959746000000","140.12401284000000"
"101","00011464","小湊鉄道第一養老川橋梁","","登録有形文化財(建造物)","交通","土木構造物","","大正","20170502","","千葉県","千葉県市原市二日市場字川欠立返り250-3～字唐灌谷876-3","","小湊鉄道株式会社","","35.44422194000000","140.11679611000000"
"101","00011463","小湊鉄道第二柴の下橋梁","","登録有形文化財(建造物)","交通","土木構造物","","大正","20170502","","千葉県","千葉県市原市二日市場字西三番町110-3～字柴ノ下327-3","","小湊鉄道株式会社","","35.44918700000000","140.12357500000000"
"101","00011466","小湊鉄道第二養老川橋梁","","登録有形文化財(建造物)","交通","土木構造物","","大正","20170502","","千葉県","千葉県市原市佐是字上尾供933-3～牛久字鶴舞421-2","","小湊鉄道株式会社","","35.40255900000000","140.13039600000000"
"101","00011477","小湊鉄道第四養老川橋梁","","登録有形文化財(建造物)","交通","土木構造物","","昭和前","20170502","","千葉県","千葉県市原市大久保字高瀬583-5～国本字瀬向16-4","","小湊鉄道株式会社","","35.28133806000000","140.14970806000000"
"101","00011471","小湊鉄道高滝駅本屋","","登録有形文化財(建造物)","交通","建築物","","大正","20170502","","千葉県","千葉県市原市高滝字峯岸736-2","","小湊鉄道株式会社","","35.35329306000000","140.15035306000000"
"101","00011475","小湊鉄道月崎駅旧下り線プラットホーム","","登録有形文化財(建造物)","交通","土木構造物","","大正","20170502","","千葉県","千葉県市原市月崎字細田539","","小湊鉄道株式会社","","35.30218600000000","140.13953500000000"
"101","00011474","小湊鉄道月崎駅本屋及びプラットホーム","","登録有形文化財(建造物)","交通","建築物","","大正","20170502","","千葉県","千葉県市原市月崎字細田539","","小湊鉄道株式会社","","35.30219500000000","140.13937889000000"
"101","00011473","小湊鉄道月崎第一隧道","","登録有形文化財(建造物)","交通","土木構造物","","大正","20170502","","千葉県","千葉県市原市柿木台字恋戸628-3～字保知803-3","","小湊鉄道株式会社","","35.30909400000000","140.13945900000000"
"101","00011478","小湊鉄道養老渓谷駅本屋","","登録有形文化財(建造物)","交通","建築物","","昭和前","20170502","","千葉県","千葉県市原市朝生原字久保177","","小湊鉄道株式会社","","35.26646611000000","140.15959889000000"
"101","00004336","近藤家住宅主屋","","登録有形文化財(建造物)","住宅","建築物","","明治","20041108","","千葉県","千葉県四街道市下志津新田2530-4","","","","35.66173673000000","140.15384779000000"
"101","00004337","近藤家住宅土蔵","","登録有形文化財(建造物)","住宅","建築物","","明治","20041108","","千葉県","千葉県四街道市下志津新田2530-4","","","","35.66155366000000","140.15411472000000"
"101","00004338","近藤家住宅長屋門","","登録有形文化財(建造物)","住宅","建築物","","明治","20041108","","千葉県","千葉県四街道市下志津新田2530-4","","","","35.66164486000000","140.15423052000000"
"101","00001169","坂本総本店店舗","","登録有形文化財(建造物)","産業3次","建築物","","明治","19990708","","千葉県","千葉県匝瑳市八日市場イ2474","","株式会社坂本総本店","","35.70132014000000","140.54791366000000"
"101","00010120","笹屋土蔵","","登録有形文化財(建造物)","産業3次","建築物","","明治","20141007","","千葉県","千葉県流山市流山1-155-1","","","","35.85724900000000","139.89992500000000"
"101","00006523","山静堂主屋","","登録有形文化財(建造物)","住宅","建築物","","昭和前","20070731","","千葉県","千葉県富津市関尻字堂前483","","","","35.21591314000000","139.92596802000000"
"101","00010564","塩田家住宅主屋","","登録有形文化財(建造物)","住宅","建築物","","明治","20150804","","千葉県","千葉県夷隅郡大多喜町小土呂字東中野197-1","","","","35.30898592000000","140.24049125000000"
"101","00013957","式場隆三郎家住宅","","登録有形文化財(建造物)","住宅","建築物","","昭和前","20211014","","千葉県","千葉県市川市国府台六丁目2412","","","","35.75574444000000","139.90311667000000"
"101","00007616","宍倉弥兵衛商店店舗兼主屋","","登録有形文化財(建造物)","産業2次","建築物","","明治","20090428","","千葉県","千葉県夷隅郡大多喜町大多喜字下南郭60-1","","","","35.28287104000000","140.24543390000000"
"101","00001245","渋谷嘉助旧宅正門","","登録有形文化財(建造物)","住宅","建築物","","明治","19990823","","千葉県","千葉県香取郡多古町北中83","","","","35.74520500000000","140.49583400000000"
"101","00013350","澁谷家住宅主屋","","登録有形文化財(建造物)","住宅","建築物","","江戸","20200817","","千葉県","千葉県鎌ケ谷市中佐津間一丁目77","","鎌ケ谷市","鎌ケ谷市","35.79693889000000","140.00329167000000"
"101","00013351","澁谷家住宅米蔵","","登録有形文化財(建造物)","住宅","建築物","","江戸","20200817","","千葉県","千葉県鎌ケ谷市中佐津間一丁目77","","鎌ケ谷市","鎌ケ谷市","35.79673889000000","140.00347222000000"
"101","00013352","澁谷家住宅門","","登録有形文化財(建造物)","住宅","その他工作物","","昭和前","20200817","","千葉県","千葉県鎌ケ谷市中佐津間一丁目77","","鎌ケ谷市","鎌ケ谷市","35.79680000000000","140.00359722000000"
"101","00010121","清水屋本店店舗兼主屋","","登録有形文化財(建造物)","産業3次","建築物","","明治","20141007","","千葉県","千葉県流山市流山2-26","","","","35.85551000000000","139.89814100000000"
"101","00004212","下郡郵便局旧局舎","","登録有形文化財(建造物)","官公庁舎","建築物","","昭和前","20040723","","千葉県","千葉県木更津市下郡791-2","","","","35.35382731000000","140.04370576000000"
"101","00008417","昭和学院創立記念館","","登録有形文化財(建造物)","住宅","建築物","","昭和前","20110126","","千葉県","千葉県市川市東菅野2-1470-1他","","学校法人昭和学院","","35.73469484000000","139.93119565000000"
"101","00003844","翠州亭（旧スイス大使館）","","登録有形文化財(建造物)","住宅","建築物","","昭和前","20040217","","千葉県","千葉県長生郡長柄町上野527-2","","日本土地改良株式会社","","35.47780600000000","140.24324000000000"
"101","00007976","鈴木家住宅石垣","","登録有形文化財(建造物)","住宅","その他工作物","","大正","20100115","","千葉県","千葉県富津市金谷字上原2288-1他","","","","35.16862720000000","139.82012983000000"
"101","00002611","鈴木家住宅石蔵","","登録有形文化財(建造物)","住宅","建築物","","大正","20020214","","千葉県","千葉県鴨川市西町1139-3","","","","35.11636464000000","140.11439748000000"
"101","00007973","鈴木家住宅石蔵","","登録有形文化財(建造物)","住宅","建築物","","明治","20100115","","千葉県","千葉県富津市金谷字上原2288-1他","","","","35.16901198000000","139.81990495000000"
"101","00007975","鈴木家住宅井戸","","登録有形文化財(建造物)","住宅","その他工作物","","昭和前","20100115","","千葉県","千葉県富津市金谷字上原2288-1他","","","","35.16906933000000","139.81988070000000"
"101","00007974","鈴木家住宅稲荷社","","登録有形文化財(建造物)","住宅","建築物","","昭和中","20100115","","千葉県","千葉県富津市金谷字上原2288-1他","","","","35.16902010000000","139.82034055000000"
"101","00006099","鈴木家住宅表門","","登録有形文化財(建造物)","住宅","その他工作物","","大正","20070515","","千葉県","千葉県館山市沼1619","","","","34.98215089000000","139.84625254000000"
"101","00006220","鈴木家住宅蔵","","登録有形文化財(建造物)","住宅","建築物","","大正","20070515","","千葉県","千葉県館山市沼1619","","","","34.98176600000000","139.84649700000000"
"101","00002613","鈴木家住宅穀蔵","","登録有形文化財(建造物)","産業2次","建築物","","明治","20020214","","千葉県","千葉県鴨川市西町1139-3","","","","35.11645671000000","140.11482581000000"
"101","00006218","鈴木家住宅主屋","","登録有形文化財(建造物)","住宅","建築物","","大正","20070515","","千葉県","千葉県館山市沼1619","","","","34.98180400000000","139.84628300000000"
"101","00002609","鈴木家住宅主屋","","登録有形文化財(建造物)","住宅","建築物","","明治","20020214","","千葉県","千葉県鴨川市西町1139-3","","","","35.11644000000000","140.11459400000000"
"101","00007972","鈴木家住宅主屋","","登録有形文化財(建造物)","住宅","建築物","","昭和中","20100115","","千葉県","千葉県富津市金谷字上原2288-1他","","","","35.16892188000000","139.82001646000000"
"101","00002610","鈴木家住宅離れ","","登録有形文化財(建造物)","住宅","建築物","","大正","20020214","","千葉県","千葉県鴨川市西町1139-3","","","","35.11641700000000","140.11445600000000"
"101","00002612","鈴木家住宅火入れ蔵","","登録有形文化財(建造物)","産業2次","建築物","","明治","20020214","","千葉県","千葉県鴨川市西町1139-3","","","","35.11634713000000","140.11486023000000"
"101","00005766","須藤家住宅主屋","","登録有形文化財(建造物)","住宅","建築物","","大正","20061018","","千葉県","千葉県南房総市千倉町大貫543","","","","34.97530463000000","139.92251333000000"
"101","00010422","洲埼灯台","","登録有形文化財(建造物)","交通","その他工作物","","大正","20150326","","千葉県","千葉県館山市洲崎字大塚1043","","国（国土交通省）","","34.97529500000000","139.75755600000000"
"101","00001167","西洋館倶楽部（渡辺家住宅）","","登録有形文化財(建造物)","住宅","建築物","","昭和前","19990708","","千葉県","千葉県市川市新田5-6-21","","","","35.72996100000000","139.91194200000000"
"101","00001491","選擇寺本堂","","登録有形文化財(建造物)","宗教","建築物","","昭和前","20000215","","千葉県","千葉県木更津市中央1-5-6","","宗教法人選擇寺","","35.38407500000000","139.92311100000000"
"101","00001244","染織処谷屋土蔵（夢紫美術館）","","登録有形文化財(建造物)","産業3次","建築物","","明治","19990823","","千葉県","千葉県香取市小見川580","","","","35.85486128000000","140.60749872000000"
"101","00012709","染谷家住宅井戸屋形","","登録有形文化財(建造物)","住宅","その他工作物","","大正","20190329","","千葉県","千葉県柏市鷲野谷字稲荷内24","","","","35.84808583000000","140.03948194000000"
"101","00012710","染谷家住宅稲荷社","","登録有形文化財(建造物)","住宅","建築物","","明治","20190329","","千葉県","千葉県柏市鷲野谷字稲荷内24","","","","35.84808583000000","140.03948194000000"
"101","00012704","染谷家住宅主屋","","登録有形文化財(建造物)","住宅","建築物","","江戸","20190329","","千葉県","千葉県柏市鷲野谷字稲荷内24","","","","35.84808583000000","140.03948194000000"
"101","00012711","染谷家住宅長屋門","","登録有形文化財(建造物)","住宅","建築物","","江戸","20190329","","千葉県","千葉県柏市鷲野谷字稲荷内24","","","","35.84808583000000","140.03948194000000"
"101","00012708","染谷家住宅肥料小屋","","登録有形文化財(建造物)","住宅","建築物","","明治","20190329","","千葉県","千葉県柏市鷲野谷字稲荷内24","","","","35.84808583000000","140.03948194000000"
"101","00012705","染谷家住宅風呂場","","登録有形文化財(建造物)","住宅","建築物","","大正","20190329","","千葉県","千葉県柏市鷲野谷字稲荷内24","","","","35.84808583000000","140.03948194000000"
"101","00012707","染谷家住宅文庫蔵","","登録有形文化財(建造物)","住宅","建築物","","江戸","20190329","","千葉県","千葉県柏市鷲野谷字稲荷内24","","","","35.84808583000000","140.03948194000000"
"101","00012706","染谷家住宅前蔵","","登録有形文化財(建造物)","住宅","建築物","","明治","20190329","","千葉県","千葉県柏市鷲野谷字稲荷内24","","","","35.84808583000000","140.03948194000000"
"101","00008649","大巌寺書院","","登録有形文化財(建造物)","宗教","建築物","","江戸","20110725","","千葉県","千葉県千葉市中央区大巌寺町180-1","","宗教法人大巌寺","","35.57427987000000","140.14610393000000"
"101","00008648","大巌寺本堂","","登録有形文化財(建造物)","宗教","建築物","","江戸","20110725","","千葉県","千葉県千葉市中央区大巌寺町180-1","","宗教法人大巌寺","","35.57412996000000","140.14590881000000"
"101","00011647","高原家住宅店蔵","","登録有形文化財(建造物)","住宅","建築物","","明治","20170628","","千葉県","千葉県長生郡一宮町一宮字櫻馬場3030","","","","35.37577300000000","140.36123300000000"
"101","00000237","武田家住宅","","登録有形文化財(建造物)","文化福祉","建築物","","大正","19970715","","千葉県","千葉県市原市古市場53","","","","35.54169917000000","140.15029449000000"
"101","00001348","多田屋店舗","","登録有形文化財(建造物)","産業3次","建築物","","昭和前","19991014","","千葉県","千葉県東金市東金1136","","","","35.56159752000000","140.36233738000000"
"101","00001347","多田屋本社社屋","","登録有形文化財(建造物)","官公庁舎","建築物","","明治","19991014","","千葉県","千葉県東金市東金1137","","","","35.56192314000000","140.36193165000000"
"101","00011878","千葉県水道局栗山配水塔","","登録有形文化財(建造物)","生活関連","土木構造物","","昭和前","20171027","","千葉県","千葉県松戸市栗山198","","千葉県水道局","","35.75523700000000","139.89776400000000"
"101","00006264","千葉県水道局千葉高架水槽","","登録有形文化財(建造物)","生活関連","その他工作物","","昭和前","20070731","","千葉県","千葉県千葉市中央区矢作町670","","千葉県水道局","","35.60630800000000","140.13774100000000"
"101","00011877","千葉県水道局千葉分場１号配水池","","登録有形文化財(建造物)","生活関連","土木構造物","","昭和前","20171027","","千葉県","千葉県千葉市中央区矢作町670","","千葉県水道局","","35.60643400000000","140.13814900000000"
"101","00004875","千葉県立佐倉高等学校記念館","","登録有形文化財(建造物)","学校","建築物","","明治","20050712","","千葉県","千葉県佐倉市鍋山町18","","千葉県","","35.72346900000000","140.23681600000000"
"101","00000758","千葉工業大学通用門（旧鉄道第二連隊表門）","","登録有形文化財(建造物)","その他","その他工作物","","大正","19980902","","千葉県","千葉県習志野市津田沼2-17-1","","学校法人千葉工業大学","","35.68966359000000","140.02188532000000"
"101","00000124","千葉市民ギャラリー・いなげ（旧神谷伝兵衛稲毛別荘）","","登録有形文化財(建造物)","住宅","建築物","","大正","19970507","","千葉県","千葉県千葉市稲毛区稲毛1-8-35","","千葉市","","35.63422443000000","140.08319785000000"
"101","00000235","千葉トヨペット本社（旧勧業銀行本店）","","登録有形文化財(建造物)","産業3次","建築物","","明治","19970715","","千葉県","千葉県千葉市美浜区稲毛海岸4-5-1","","千葉トヨペット株式会社","","35.63647736000000","140.07788459000000"
"101","00009435","千葉黎明学園生徒館","","登録有形文化財(建造物)","学校","建築物","","大正","20130329","","千葉県","千葉県八街市八街ほ628他","","学校法人千葉黎明学園","","35.66268651000000","140.30716342000000"
"101","00001173","長興院山門","","登録有形文化財(建造物)","宗教","その他工作物","","江戸","19990708","","千葉県","千葉県成田市伊能556","","宗教法人長興院","","35.83786963000000","140.43199424000000"
"101","00008651","寺田園旧店舗","","登録有形文化財(建造物)","産業3次","建築物","","明治","20110725","","千葉県","千葉県流山市流山2-101-1","","株式会社流山ツーリズムデザイン","","35.85536961000000","139.89834497000000"
"101","00001172","寺田本家醸造蔵","","登録有形文化財(建造物)","産業2次","建築物","","明治","19990708","","千葉県","千葉県香取郡神崎町神崎本宿1964","","株式会社寺田本家","","35.90540155000000","140.40153507000000"
"101","00002133","東葉高等学校正門（旧近藤家住宅長屋門）","","登録有形文化財(建造物)","住宅","建築物","","明治","20010424","","千葉県","千葉県船橋市飯山満町2-670-1","","学校法人船橋学園","","35.71146826000000","140.02137428000000"
"101","00006377","戸邉五右衞門家住宅米蔵","","登録有形文化財(建造物)","産業3次","建築物","","昭和中","20071002","","千葉県","千葉県野田市中野台字川岸702-1他","","","","35.93981600000000","139.84915684000000"
"101","00006745","戸邉五右衞門家住宅主屋","","登録有形文化財(建造物)","産業3次","建築物","","明治","20071002","","千葉県","千葉県野田市中野台字川岸699-3他","","","","35.94000200000000","139.84910600000000"
"101","00006376","戸邉五右衞門家住宅倉庫","","登録有形文化財(建造物)","産業3次","建築物","","昭和中","20071002","","千葉県","千葉県野田市中野台字川岸703-1","","","","35.93991100000000","139.84890700000000"
"101","00006375","戸邉五右衞門家住宅土蔵","","登録有形文化財(建造物)","産業3次","建築物","","昭和前","20071002","","千葉県","千葉県野田市中野台字川岸702-1","","","","35.94008300000000","139.84893800000000"
"101","00006469","巴橋","","登録有形文化財(建造物)","交通","土木構造物","","明治","20071002","","千葉県","千葉県館山市犬石字巴9-1地先","","館山市","","34.92782282000000","139.83277021000000"
"101","00008823","豊乃鶴酒造煙突","","登録有形文化財(建造物)","産業2次","その他工作物","","昭和中","20111028","","千葉県","千葉県夷隅郡大多喜町新丁字下宿88","","豊乃鶴酒造株式会社","","35.28449550000000","140.24725389000000"
"101","00008821","豊乃鶴酒造工場","","登録有形文化財(建造物)","産業2次","建築物","","明治","20111028","","千葉県","千葉県夷隅郡大多喜町新丁字下宿88","","豊乃鶴酒造株式会社","","35.28463378000000","140.24728979000000"
"101","00008822","豊乃鶴酒造酒蔵","","登録有形文化財(建造物)","産業2次","建築物","","明治","20111028","","千葉県","千葉県夷隅郡大多喜町新丁字下宿88","","豊乃鶴酒造株式会社","","35.28474414000000","140.24709833000000"
"101","00001408","豊乃鶴酒造主屋","","登録有形文化財(建造物)","産業2次","建築物","","明治","19991118","","千葉県","千葉県夷隅郡大多喜町新丁字下宿88","","","","35.28425135000000","140.24728328000000"
"101","00008820","豊乃鶴酒造精米所及び貯蔵庫","","登録有形文化財(建造物)","産業2次","建築物","","明治","20111028","","千葉県","千葉県夷隅郡大多喜町新丁字下宿88","","豊乃鶴酒造株式会社","","35.28429473000000","140.24753045000000"
"101","00008819","豊乃鶴酒造店舗","","登録有形文化財(建造物)","産業2次","建築物","","昭和前","20111028","","千葉県","千葉県夷隅郡大多喜町新丁字下宿88","","豊乃鶴酒造株式会社","","35.28442636000000","140.24722863000000"
"101","00010117","中村家住宅稲荷社","","登録有形文化財(建造物)","産業2次","建築物","","明治","20141007","","千葉県","千葉県市川市鬼越2-200-3","","","","35.71669700000000","139.94061600000000"
"101","00010115","中村家住宅北蔵及び事務所","","登録有形文化財(建造物)","産業2次","建築物","","大正","20141007","","千葉県","千葉県市川市鬼越2-200-1","","","","35.71692600000000","139.94102900000000"
"101","00010111","中村家住宅主屋","","登録有形文化財(建造物)","産業2次","建築物","","明治","20141007","","千葉県","千葉県市川市鬼越2-200-1他","","","","35.71694700000000","139.94082100000000"
"101","00010116","中村家住宅倉庫","","登録有形文化財(建造物)","産業2次","建築物","","明治","20141007","","千葉県","千葉県市川市鬼越2-200-2","","","","35.71661700000000","139.94083300000000"
"101","00010114","中村家住宅土蔵","","登録有形文化財(建造物)","産業2次","建築物","","明治","20141007","","千葉県","千葉県市川市鬼越2-200-2","","","","35.71681300000000","139.94092200000000"
"101","00010112","中村家住宅離れ","","登録有形文化財(建造物)","産業2次","建築物","","明治","20141007","","千葉県","千葉県市川市鬼越2-200-2","","","","35.71681000000000","139.94081200000000"
"101","00010118","中村家住宅防空壕","","登録有形文化財(建造物)","産業2次","その他工作物","","昭和前","20141007","","千葉県","千葉県市川市鬼越2-200-3","","","","35.71680400000000","139.94066000000000"
"101","00010119","中村家住宅門及び石塀","","登録有形文化財(建造物)","産業2次","その他工作物","","明治","20141007","","千葉県","千葉県市川市鬼越2-200-1","","","","35.71699061000000","139.94097532000000"
"101","00010113","中村家住宅煉瓦蔵","","登録有形文化財(建造物)","産業2次","建築物","","明治","20141007","","千葉県","千葉県市川市鬼越2-200-1","","","","35.71700900000000","139.94075200000000"
"101","00011635","滑川家住宅主屋","","登録有形文化財(建造物)","住宅","建築物","","明治","20170628","","千葉県","千葉県銚子市野尻町27-1","","","","35.76837300000000","140.75666400000000"
"101","00011636","滑川家住宅長屋門","","登録有形文化財(建造物)","住宅","建築物","","江戸","20170628","","千葉県","千葉県銚子市野尻町27-1","","","","35.76818700000000","140.75670700000000"
"101","00007341","日本福音ルーテル市川教会会堂","","登録有形文化財(建造物)","宗教","建築物","","昭和中","20081023","","千葉県","千葉県市川市市川4-288-14","","宗教法人日本福音ルーテル教会","","35.73825100000000","139.90587210000000"
"101","00013961","根本家住宅主屋","","登録有形文化財(建造物)","住宅","建築物","","江戸","20211014","","千葉県","千葉県我孫子市都部字宿通93-1","","","","35.86985833000000","140.06636667000000"
"101","00013962","根本家住宅北倉","","登録有形文化財(建造物)","住宅","建築物","","明治","20211014","","千葉県","千葉県我孫子市都部字宿通93-1","","","","35.86980000000000","140.06666111000000"
"101","00013963","根本家住宅南倉","","登録有形文化財(建造物)","住宅","建築物","","江戸","20211014","","千葉県","千葉県我孫子市都部字宿通93-1","","","","35.86965000000000","140.06661667000000"
"101","00013964","根本家住宅屋敷社","","登録有形文化財(建造物)","住宅","建築物","","明治","20211014","","千葉県","千葉県我孫子市都部字宿通93-1","","","","35.86976667000000","140.06628889000000"
"101","00009130","野島埼灯台","","登録有形文化財(建造物)","交通","その他工作物","","大正","20120223","","千葉県","千葉県南房総市白浜町白浜630","","国（国土交通省）","","34.90170812000000","139.88828653000000"
"101","00013692","野田市郷土博物館","","登録有形文化財(建造物)","文化福祉","建築物","","昭和中","20210226","","千葉県","千葉県野田市野田字谷端370-8","","野田市","","35.94534722000000","139.86547778000000"
"101","00000125","野田市市民会館（旧茂木佐平治家住宅）主屋","","登録有形文化財(建造物)","住宅","建築物","","大正","19970507","","千葉県","千葉県野田市野田370-8","","野田市","","35.94575492000000","139.86556429000000"
"101","00000126","野田市市民会館（旧茂木佐平治家住宅）茶室","","登録有形文化財(建造物)","住宅","建築物","","明治","19970507","","千葉県","千葉県野田市野田370-8","","野田市","","35.94582368000000","139.86596112000000"
"101","00013960","野田市立中央小学校旧正門","","登録有形文化財(建造物)","学校","その他工作物","","大正","20211014","","千葉県","千葉県野田市野田字東上町629","","野田市","","35.94608333000000","139.86214722000000"
"101","00013958","野田市立中央小学校３年館","","登録有形文化財(建造物)","学校","建築物","","昭和前","20211014","","千葉県","千葉県野田市野田字東上町619-1他","","野田市","","35.94646111000000","139.86336389000000"
"101","00013959","野田市立中央小学校７年館","","登録有形文化財(建造物)","学校","建築物","","昭和前","20211014","","千葉県","千葉県野田市野田字東上町611他","","野田市","","35.94695000000000","139.86380000000000"
"101","00007612","八鶴亭宿泊館","","登録有形文化財(建造物)","産業3次","建築物","","大正","20090428","","千葉県","千葉県東金市東金1406-1他","","株式会社八鶴亭","","35.56067322000000","140.35903601000000"
"101","00007611","八鶴亭新館","","登録有形文化財(建造物)","産業3次","建築物","","昭和前","20090428","","千葉県","千葉県東金市東金1406-1他","","株式会社八鶴亭","","35.56055684000000","140.35894342000000"
"101","00007614","八鶴亭ビリヤード棟","","登録有形文化財(建造物)","産業3次","建築物","","昭和前","20090428","","千葉県","千葉県東金市東金1406-1他","","株式会社八鶴亭","","35.56052079000000","140.35913639000000"
"101","00007610","八鶴亭本館","","登録有形文化財(建造物)","産業3次","建築物","","昭和前","20090428","","千葉県","千葉県東金市東金1406-1他","","株式会社八鶴亭","","35.56051360000000","140.35876799000000"
"101","00007613","八鶴亭浴室棟","","登録有形文化財(建造物)","産業3次","建築物","","昭和前","20090428","","千葉県","千葉県東金市東金1406-1他","","株式会社八鶴亭","","35.56041540000000","140.35910938000000"
"101","00003392","廣瀬家住宅井戸上屋","","登録有形文化財(建造物)","産業3次","その他工作物","","昭和前","20030701","","千葉県","千葉県習志野市津田沼6-5-11","","","","35.67802800000000","140.02158386000000"
"101","00003390","廣瀬家住宅蔵","","登録有形文化財(建造物)","住宅","建築物","","明治","20030701","","千葉県","千葉県習志野市津田沼6-5-11","","","","35.67804000000000","140.02142300000000"
"101","00003389","廣瀬家住宅主屋","","登録有形文化財(建造物)","住宅","建築物","","江戸","20030701","","千葉県","千葉県習志野市津田沼6-5-11","","","","35.67812700000000","140.02148400000000"
"101","00003391","廣瀬家住宅倉庫","","登録有形文化財(建造物)","産業3次","建築物","","明治","20030701","","千葉県","千葉県習志野市津田沼6-5-11","","","","35.67797252000000","140.02162272000000"
"101","00006513","紅屋商店主屋","","登録有形文化財(建造物)","住宅","建築物","","昭和前","20070731","","千葉県","千葉県館山市長須賀1","","","","34.98517534000000","139.86586435000000"
"101","00006280","紅屋商店店舗","","登録有形文化財(建造物)","産業3次","建築物","","大正","20070731","","千葉県","千葉県館山市長須賀1","","","","34.98518400000000","139.86581400000000"
"101","00001179","星野家薬局調剤室","","登録有形文化財(建造物)","産業3次","建築物","","明治","19990708","","千葉県","千葉県長生郡長南町長南2574","","","","35.39819380000000","140.23167255000000"
"101","00001178","星野家薬局店舗","","登録有形文化財(建造物)","産業3次","建築物","","明治","19990708","","千葉県","千葉県長生郡長南町長南2574","","","","35.39813217000000","140.23171359000000"
"101","00001180","星野家薬局門","","登録有形文化財(建造物)","住宅","その他工作物","","江戸","19990708","","千葉県","千葉県長生郡長南町長南2574","","","","35.39806642000000","140.23172404000000"
"101","00006374","桝田家住宅主屋","","登録有形文化財(建造物)","産業3次","建築物","","明治","20071002","","千葉県","千葉県野田市今上字浅間下2574-1","","","","35.93688200000000","139.85441600000000"
"101","00009588","桝田家住宅土蔵","","登録有形文化財(建造物)","産業3次","建築物","","昭和前","20130621","","千葉県","千葉県野田市今上字浅現下2574-1","","","","35.93686545000000","139.85456825000000"
"101","00009587","桝田家住宅不動尊祠","","登録有形文化財(建造物)","産業3次","建築物","","明治","20130621","","千葉県","千葉県野田市今上字浅現下2574-1","","","","35.93681072000000","139.85456825000000"
"101","00009590","桝田家住宅煉瓦塀","","登録有形文化財(建造物)","産業3次","その他工作物","","明治","20130621","","千葉県","千葉県野田市今上字浅現下2574-1","","","","35.93682296000000","139.85432297000000"
"101","00009589","桝田家住宅脇門","","登録有形文化財(建造物)","産業3次","その他工作物","","明治","20130621","","千葉県","千葉県野田市今上字浅現下2574-1","","","","35.93678455000000","139.85449687000000"
"101","00011646","松ケ丘一号型街路灯","","登録有形文化財(建造物)","生活関連","その他工作物","","昭和中","20170628","","千葉県","千葉県流山市松ケ丘二丁目330-85","","宗教法人陽廣院","","35.84762400000000","139.95002800000000"
"101","00013353","丸屋","","登録有形文化財(建造物)","産業3次","建築物","","明治","20200817","","千葉県","千葉県鎌ケ谷市鎌ケ谷四丁目17他","","","","35.75663056000000","140.01210278000000"
"101","00013354","丸屋離れ","","登録有形文化財(建造物)","産業3次","建築物","","明治","20200817","","千葉県","千葉県鎌ケ谷市鎌ケ谷四丁目17他","","","","35.75661111000000","140.01224444000000"
"101","00006516","宮醤油店奥蔵","","登録有形文化財(建造物)","住宅","建築物","","大正","20070731","","千葉県","千葉県富津市佐貫字西正石247","","","","35.26185431000000","139.88531742000000"
"101","00006519","宮醤油店旧米蔵","","登録有形文化財(建造物)","産業2次","建築物","","明治","20070731","","千葉県","千葉県富津市佐貫字西正石247","","","","35.26181000000000","139.88562000000000"
"101","00006522","宮醤油店主屋","","登録有形文化財(建造物)","住宅","建築物","","明治","20070731","","千葉県","千葉県富津市佐貫字西正石247","","","","35.26179510000000","139.88541280000000"
"101","00006514","宮醤油店店舗","","登録有形文化財(建造物)","産業3次","建築物","","明治","20070731","","千葉県","千葉県富津市佐貫字西正石247","","","","35.26191906000000","139.88546800000000"
"101","00006521","宮醤油店西蔵","","登録有形文化財(建造物)","産業2次","建築物","","明治","20070731","","千葉県","千葉県富津市佐貫字西正石247","","","","35.26172182000000","139.88539588000000"
"101","00006517","宮醤油店離れ","","登録有形文化財(建造物)","住宅","建築物","","大正","20070731","","千葉県","千葉県富津市佐貫字西正石247","","","","35.26179100000000","139.88531500000000"
"101","00006520","宮醤油店東蔵","","登録有形文化財(建造物)","産業2次","建築物","","明治","20070731","","千葉県","千葉県富津市佐貫字西正石247","","","","35.26173000000000","139.88559000000000"
"101","00006515","宮醤油店店蔵","","登録有形文化財(建造物)","産業3次","建築物","","江戸","20070731","","千葉県","千葉県富津市佐貫字西正石247","","","","35.26192900000000","139.88543700000000"
"101","00006518","宮醤油店脇蔵","","登録有形文化財(建造物)","産業3次","建築物","","明治","20070731","","千葉県","千葉県富津市佐貫字西正石247","","","","35.26193585000000","139.88557276000000"
"101","00012117","茂木七郎右衛門家住宅内門","","登録有形文化財(建造物)","住宅","その他工作物","","明治","20180327","","千葉県","千葉県野田市野田字東中町337他","","","","35.94416422000000","139.86330987000000"
"101","00012114","茂木七郎右衛門家住宅奥文庫蔵","","登録有形文化財(建造物)","住宅","建築物","","江戸","20180327","","千葉県","千葉県野田市野田339","","","","35.94449100000000","139.86308300000000"
"101","00012115","茂木七郎右衛門家住宅穀物蔵","","登録有形文化財(建造物)","住宅","建築物","","明治","20180327","","千葉県","千葉県野田市野田339","","","","35.94427600000000","139.86355700000000"
"101","00012125","茂木七郎右衛門家住宅琴平蔵","","登録有形文化財(建造物)","住宅","建築物","","明治","20180327","","千葉県","千葉県野田市野田字東中町339他","","","","35.94457100000000","139.86330400000000"
"101","00012123","茂木七郎右衛門家住宅琴平神社額殿（絵馬殿）","","登録有形文化財(建造物)","住宅","建築物","","明治","20180327","","千葉県","千葉県野田市野田339","","宗教法人琴平神社","","35.94448800000000","139.86350400000000"
"101","00012122","茂木七郎右衛門家住宅琴平神社神楽殿","","登録有形文化財(建造物)","住宅","建築物","","大正","20180327","","千葉県","千葉県野田市野田339","","宗教法人琴平神社","","35.94441000000000","139.86353000000000"
"101","00012124","茂木七郎右衛門家住宅琴平神社手水舎","","登録有形文化財(建造物)","住宅","その他工作物","","明治","20180327","","千葉県","千葉県野田市野田339","","宗教法人琴平神社","","35.94449900000000","139.86364000000000"
"101","00012121","茂木七郎右衛門家住宅琴平神社本殿","","登録有形文化財(建造物)","住宅","建築物","","明治","20180327","","千葉県","千葉県野田市野田339","","宗教法人琴平神社","","35.94459200000000","139.86351600000000"
"101","00012108","茂木七郎右衛門家住宅主屋","","登録有形文化財(建造物)","住宅","建築物","","明治","20180327","","千葉県","千葉県野田市野田339","","","","35.94429700000000","139.86313600000000"
"101","00012109","茂木七郎右衛門家住宅書院","","登録有形文化財(建造物)","住宅","建築物","","明治","20180327","","千葉県","千葉県野田市野田339","","","","35.94441700000000","139.86328900000000"
"101","00012119","茂木七郎右衛門家住宅書院北・東側土塀","","登録有形文化財(建造物)","住宅","その他工作物","","明治","20180327","","千葉県","千葉県野田市野田字東中町339他","","","","35.94451600000000","139.86343600000000"
"101","00012120","茂木七郎右衛門家住宅書院南側板塀","","登録有形文化財(建造物)","住宅","その他工作物","","明治","20180327","","千葉県","千葉県野田市野田字東中町338-1他","","","","35.94424600000000","139.86347000000000"
"101","00012112","茂木七郎右衛門家住宅新蔵","","登録有形文化財(建造物)","住宅","建築物","","大正","20180327","","千葉県","千葉県野田市野田339","","","","35.94439500000000","139.86298500000000"
"101","00012110","茂木七郎右衛門家住宅新座敷","","登録有形文化財(建造物)","住宅","建築物","","大正","20180327","","千葉県","千葉県野田市野田339","","","","35.94441500000000","139.86310100000000"
"101","00012116","茂木七郎右衛門家住宅正門","","登録有形文化財(建造物)","住宅","その他工作物","","明治","20180327","","千葉県","千葉県野田市野田字東中町337","","","","35.94398977000000","139.86356396000000"
"101","00012111","茂木七郎右衛門家住宅本蔵","","登録有形文化財(建造物)","住宅","建築物","","江戸","20180327","","千葉県","千葉県野田市野田339","","","","35.94434100000000","139.86299800000000"
"101","00012113","茂木七郎右衛門家住宅向蔵","","登録有形文化財(建造物)","住宅","建築物","","江戸","20180327","","千葉県","千葉県野田市野田339","","","","35.94421900000000","139.86294600000000"
"101","00012118","茂木七郎右衛門家住宅煉瓦塀","","登録有形文化財(建造物)","住宅","その他工作物","","明治","20180327","","千葉県","千葉県野田市野田字東中町340-1他","","","","35.94451626000000","139.86318488000000"
"101","00007965","茂木本家住宅板塀","","登録有形文化財(建造物)","住宅","その他工作物","","大正","20100115","","千葉県","千葉県野田市清水字谷端1087-1他","","","","35.94355207000000","139.86540652000000"
"101","00007967","茂木本家住宅稲荷神社","","登録有形文化財(建造物)","住宅","建築物","","江戸","20100115","","千葉県","千葉県野田市野田字東下町242-10","","","","35.94348621000000","139.86473641000000"
"101","00007968","茂木本家住宅稲荷神社水屋","","登録有形文化財(建造物)","住宅","その他工作物","","江戸","20100115","","千葉県","千葉県野田市野田字東下町242-10","","","","35.94346067000000","139.86476078000000"
"101","00007958","茂木本家住宅北蔵","","登録有形文化財(建造物)","住宅","建築物","","大正","20100115","","千葉県","千葉県野田市清水字谷端1087-1","","","","35.94344239000000","139.86549965000000"
"101","00007962","茂木本家住宅旧米倉","","登録有形文化財(建造物)","住宅","建築物","","大正","20100115","","千葉県","千葉県野田市清水字谷端1087-1","","","","35.94347112000000","139.86489555000000"
"101","00007960","茂木本家住宅旧仕込倉","","登録有形文化財(建造物)","住宅","建築物","","大正","20100115","","千葉県","千葉県野田市清水字谷端1087-1","","","","35.94328397000000","139.86499392000000"
"101","00007961","茂木本家住宅旧漬物倉","","登録有形文化財(建造物)","住宅","建築物","","大正","20100115","","千葉県","千葉県野田市清水字谷端1087-1","","","","35.94350333000000","139.86516366000000"
"101","00007963","茂木本家住宅旧門番棟","","登録有形文化財(建造物)","住宅","建築物","","大正","20100115","","千葉県","千葉県野田市清水字谷端1087-1","","","","35.94346938000000","139.86498260000000"
"101","00007957","茂木本家住宅主屋","","登録有形文化財(建造物)","住宅","建築物","","大正","20100115","","千葉県","千葉県野田市清水字谷端1087-1","","","","35.94335448000000","139.86517062000000"
"101","00007964","茂木本家住宅正門","","登録有形文化財(建造物)","住宅","その他工作物","","大正","20100115","","千葉県","千葉県野田市清水字谷端1087-1","","","","35.94349991000000","139.86504585000000"
"101","00007966","茂木本家住宅庭門及び竹木賊張塀","","登録有形文化財(建造物)","住宅","その他工作物","","大正","20100115","","千葉県","千葉県野田市清水字谷端1087-1","","","","35.94317777000000","139.86510969000000"
"101","00007959","茂木本家住宅南蔵","","登録有形文化財(建造物)","住宅","建築物","","大正","20100115","","千葉県","千葉県野田市清水字谷端1087-1","","","","35.94337276000000","139.86552142000000"
"101","00007969","茂木本家住宅煉瓦塀","","登録有形文化財(建造物)","住宅","その他工作物","","昭和前","20100115","","千葉県","千葉県野田市野田字東下町242-10","","","","35.94355528000000","139.86472944000000"
"101","00001168","茂原昇天教会","","登録有形文化財(建造物)","宗教","建築物","","昭和前","19990708","","千葉県","千葉県茂原市茂原581","","宗教法人日本聖公会横浜教区","","35.42448804000000","140.29724583000000"
"101","00008650","ヤマニ綱島商店店舗","","登録有形文化財(建造物)","産業3次","建築物","","江戸","20110725","","千葉県","千葉県木更津市中央2-1412-1","","","","35.38372825000000","139.92121694000000"
"101","00007017","吉野酒造石塀","","登録有形文化財(建造物)","産業2次","その他工作物","","明治","20080418","","千葉県","千葉県勝浦市植野字腰越571他","","","","35.15387115000000","140.24875789000000"
"101","00007010","吉野酒造煙突","","登録有形文化財(建造物)","産業2次","その他工作物","","明治","20080418","","千葉県","千葉県勝浦市植野字腰越571他","","","","35.15407600000000","140.24865700000000"
"101","00007011","吉野酒造北酒蔵","","登録有形文化財(建造物)","産業2次","建築物","","大正","20080418","","千葉県","千葉県勝浦市植野字腰越571他","","","","35.15441500000000","140.24876400000000"
"101","00007013","吉野酒造北土蔵","","登録有形文化財(建造物)","産業2次","建築物","","明治","20080418","","千葉県","千葉県勝浦市植野字腰越571他","","","","35.15427800000000","140.24833700000000"
"101","00007014","吉野酒造旧馬屋","","登録有形文化財(建造物)","産業2次","建築物","","明治","20080418","","千葉県","千葉県勝浦市植野字腰越571他","","","","35.15453850000000","140.24831650000000"
"101","00007008","吉野酒造店舗兼主屋","","登録有形文化財(建造物)","産業2次","建築物","","明治","20080418","","千葉県","千葉県勝浦市植野字腰越571他","","","","35.15401500000000","140.24850500000000"
"101","00007015","吉野酒造松尾神社","","登録有形文化財(建造物)","産業2次","建築物","","明治","20080418","","千葉県","千葉県勝浦市植野字腰越571他","","","","35.15485569000000","140.24887331000000"
"101","00007012","吉野酒造南蔵","","登録有形文化財(建造物)","産業2次","建築物","","明治","20080418","","千葉県","千葉県勝浦市植野字腰越571他","","","","35.15415000000000","140.24831850000000"
"101","00007009","吉野酒造南酒蔵","","登録有形文化財(建造物)","産業2次","建築物","","明治","20080418","","千葉県","千葉県勝浦市植野字腰越571他","","","","35.15409900000000","140.24881000000000"
"101","00007016","吉野酒造門","","登録有形文化財(建造物)","産業2次","その他工作物","","昭和中","20080418","","千葉県","千葉県勝浦市植野字腰越571他","","","","35.15385623000000","140.24868915000000"
"101","00003393","旅館松の家","","登録有形文化財(建造物)","産業3次","建築物","","昭和前","20030701","","千葉県","千葉県勝浦市勝浦30","","","","35.14819062000000","140.31598217000000"
